City_ID,City,Lat,Lng,Max Temp,Humidity,Cloudiness,Wind Speed,Country,Date
0,uturoa,-16.7333,-151.4333,84.42,75,46,16.46,PF,1712874386
1,kabare,-2.4683,28.8242,62.38,94,99,0.72,CD,1712874569
2,grytviken,-54.2811,-36.5092,29.64,70,13,9.64,GS,1712874098
3,invercargill,-46.4,168.35,49.01,84,100,1.99,NZ,1712874461
4,adamstown,-25.066,-130.1015,69.89,54,3,13.35,PN,1712874086
5,urengoy,65.9667,78.3667,-5.6,94,100,14.12,RU,1712874487
6,puerto natales,-51.7236,-72.4875,40.1,89,20,5.53,CL,1712873795
7,colon,9.3592,-79.9014,81.99,82,85,8.52,PA,1712874475
8,port elizabeth,-33.918,25.5701,59.09,79,20,10.36,ZA,1712873828
9,yemva,62.59,50.8594,37.09,91,100,13.89,RU,1712874574
10,avarua,-21.2078,-159.775,80.65,89,75,17.27,CK,1712874575
11,stanley,54.868,-1.6985,55.71,94,40,10.36,GB,1712874082
12,bethel,41.3712,-73.414,58.64,88,100,3.44,US,1712874547
13,ribeira grande,38.5167,-28.7,59.77,93,97,1.99,PT,1712874300
14,mount pearl,47.5166,-52.7813,38.84,77,0,11.5,CA,1712874507
15,port lincoln,-34.7333,135.8667,58.53,63,100,7.02,AU,1712874579
16,ghat,24.9647,10.1728,78.75,16,0,11.77,LY,1712874491
17,olonkinbyen,70.9221,-8.7187,16.83,88,100,15.19,SJ,1712874226
18,blackmans bay,-43.0167,147.3167,53.53,82,82,1.01,AU,1712874486
19,enewetak,11.3474,162.3373,80.6,79,94,21.61,MH,1712874241
20,wanganui,-39.9333,175.05,67.23,77,98,9.75,NZ,1712874583
21,lumphat,13.4878,106.9816,74.91,79,94,3.98,KH,1712874584
22,port alfred,-33.5906,26.891,58.17,83,15,5.99,ZA,1712874585
23,saint-francois,46.4154,3.9054,46.65,88,0,2.3,FR,1712874586
24,edinburgh of the seven seas,-37.0676,-12.3116,65.21,95,76,16.51,SH,1712874490
25,albany,42.6001,-73.9662,59.59,80,100,3.0,US,1712874587
26,emkhomazi,-30.2067,30.7978,60.04,59,0,13.04,ZA,1712874588
27,merizo village,13.2658,144.6691,82.96,89,100,13.85,GU,1712874589
28,port-aux-francais,-49.35,70.2167,42.62,89,100,7.47,TF,1712874589
29,fortuna,40.5982,-124.1573,57.92,80,100,11.5,US,1712874342
30,puerto ayora,-0.7393,-90.3518,84.16,97,48,10.0,EC,1712874310
31,saudarkrokur,65.7461,-19.6394,32.83,99,99,7.76,IS,1712874179
32,west island,-12.1568,96.8225,78.78,89,49,5.75,CC,1712874593
33,alice springs,-23.7,133.8833,60.22,45,3,4.61,AU,1712874060
34,san antonio de pale,-1.4014,5.6325,81.7,78,100,10.09,GQ,1712874089
35,carloforte,39.145,8.3058,54.9,73,37,4.56,IT,1712874595
36,arraial do cabo,-22.9661,-42.0278,78.1,84,95,5.17,BR,1712874132
37,salalah,17.0151,54.0924,82.49,69,40,5.75,OM,1712874597
38,anadyr,64.75,177.4833,7.3,71,0,8.95,RU,1712874598
39,griffith,41.5284,-87.4237,58.14,75,75,14.97,US,1712874472
40,longyearbyen,78.2186,15.6401,3.04,66,0,8.05,SJ,1712874599
41,waitangi,-43.9535,-176.5597,63.82,93,100,11.99,NZ,1712874483
42,strezhevoy,60.7333,77.5889,-0.04,92,47,7.0,RU,1712874603
43,gorontalo,0.5412,123.0595,73.04,90,100,3.22,ID,1712874511
44,kruisfontein,-34.0033,24.7314,56.88,75,3,7.07,ZA,1712874607
45,wailua homesteads,22.0669,-159.378,79.23,84,100,4.61,US,1712874609
46,margaret river,-33.95,115.0667,52.97,88,5,12.01,AU,1712874625
47,ushuaia,-54.8,-68.3,46.06,66,0,27.63,AR,1712874409
48,turpan,42.9333,89.1667,64.8,25,0,5.77,CN,1712874167
49,soio,-6.1349,12.3689,80.58,83,100,10.87,AO,1712874124
50,daru,-9.0763,143.2092,80.26,84,100,17.11,PG,1712874215
51,imranli,39.8754,38.1136,44.64,92,99,4.12,TR,1712874631
52,lebu,-37.6167,-73.65,55.71,77,1,6.11,CL,1712874202
53,tangalle,6.024,80.7911,79.59,85,94,10.29,LK,1712874634
54,udachny,66.4167,112.4,-18.54,100,100,5.06,RU,1712874627
55,biloela,-24.4167,150.5,73.89,56,0,11.54,AU,1712874637
56,san mateo del mar,16.2,-95.0,88.48,38,99,37.56,MX,1712874638
57,sao gabriel da cachoeira,-0.1303,-67.0892,82.15,85,88,2.42,BR,1712874426
58,niquero,20.0431,-77.5828,82.18,72,6,12.01,CU,1712874640
59,tromso,69.6496,18.957,35.62,87,100,10.36,NO,1712874641
60,fort bragg,35.139,-79.006,70.83,88,100,14.97,US,1712874529
61,santa cruz,-17.8,-63.1667,78.85,69,75,9.22,BO,1712874375
62,petropavlovsk-kamchatsky,53.0452,158.6483,36.19,71,0,25.99,RU,1712874644
63,malango,-2.9627,119.9001,68.81,99,100,1.1,ID,1712874645
64,arteche,12.2645,125.4048,78.93,89,94,6.76,PH,1712874646
65,susuman,62.7833,148.1667,7.99,97,99,3.0,RU,1712874177
66,chonchi,-42.6128,-73.8092,60.01,78,0,1.25,CL,1712874648
67,flying fish cove,-10.4217,105.6791,80.28,83,75,9.22,CX,1712874022
68,bilibino,68.0546,166.4372,10.4,81,100,3.15,RU,1712874649
69,vila velha,-20.3297,-40.2925,81.95,82,20,3.44,BR,1712873962
70,tiksi,71.6872,128.8694,-14.22,94,23,12.15,RU,1712874651
71,taltal,-25.4,-70.4833,65.62,78,60,4.27,CL,1712874652
72,villa rica,33.7321,-84.9191,64.0,89,75,13.15,US,1712874652
73,pisco,-13.7,-76.2167,78.85,65,0,13.8,PE,1712874653
74,kirensk,57.7853,108.1119,21.96,95,100,5.01,RU,1712874523
75,utrik,11.2278,169.8474,79.99,75,96,20.8,MH,1712874490
76,klyuchi,52.2667,79.1667,27.05,71,77,7.76,RU,1712874656
77,georgetown,5.4112,100.3354,81.95,83,20,2.3,MY,1712874523
78,iqaluit,63.7506,-68.5145,28.13,68,100,5.75,CA,1712874597
79,baillif,16.0202,-61.7463,80.1,75,2,9.95,GP,1712874659
80,iskateley,67.6803,53.1512,35.02,100,100,17.0,RU,1712874660
81,kiomboi,-4.2667,34.3667,62.87,90,86,3.76,TZ,1712874660
82,norrtalje,59.758,18.705,50.43,85,8,11.95,SE,1712874661
83,port mathurin,-19.6833,63.4167,79.88,77,7,10.8,MU,1712874625
84,acarau,-2.8856,-40.12,80.22,85,97,7.74,BR,1712874533
85,sake,-1.5736,29.045,63.23,95,98,1.19,CD,1712874536
86,mar del plata,-38.0023,-57.5575,57.09,67,75,4.61,AR,1712874639
87,klaksvik,62.2266,-6.589,45.52,92,100,26.71,FO,1712874512
88,bamboo flat,11.7,92.7167,80.53,81,7,4.9,IN,1712874006
89,severo-yeniseyskiy,60.3725,93.0408,-3.42,99,98,1.01,RU,1712874653
90,kingston,17.997,-76.7936,86.95,70,20,24.16,JM,1712874605
91,ilulissat,69.2167,-51.1,21.22,79,100,3.44,GL,1712873839
92,howrah,22.5892,88.3103,78.8,65,40,4.61,IN,1712874675
93,haiku-pauwela,20.9219,-156.3051,81.21,71,20,16.11,US,1712874676
94,abu dhabi,24.4667,54.3667,82.94,68,0,6.91,AE,1712874677
95,san patricio,28.017,-97.5169,87.66,21,0,11.48,US,1712873956
96,christchurch,-43.5333,172.6333,52.54,94,100,19.57,NZ,1712874511
97,barcelos,41.5388,-8.6151,60.94,81,100,5.5,PT,1712874627
98,karratha,-20.7377,116.8463,81.1,71,64,4.18,AU,1712874682
99,ridgecrest,35.6225,-117.6709,87.03,13,0,8.01,US,1712874683
100,hawaiian paradise park,19.5933,-154.9731,76.03,96,100,4.61,US,1712873894
101,miches,18.9836,-69.0476,77.49,82,60,12.82,DO,1712874685
102,weno,7.4515,151.8468,84.15,84,100,8.05,FM,1712874483
103,praia da vitoria,38.7333,-27.0667,61.05,94,75,7.56,PT,1712874157
104,hadibu,12.65,54.0333,80.53,78,95,4.7,YE,1712874687
105,aketi,2.7388,23.7833,78.08,59,90,3.47,CD,1712874688
106,carbonear,47.7332,-53.2148,38.37,68,0,11.05,CA,1712874689
107,vernon,50.2581,-119.2691,60.3,40,100,3.44,CA,1712874470
108,bathsheba,13.2167,-59.5167,83.01,74,20,16.11,BB,1712874691
109,den burg,53.0542,4.7972,55.96,94,100,13.8,NL,1712874629
110,kodiak,57.79,-152.4072,33.31,93,100,4.61,US,1712874692
111,hithadhoo,-0.6,73.0833,83.34,73,100,5.14,MV,1712874693
112,whitehorse,60.7161,-135.0538,45.37,33,20,13.8,CA,1712874224
113,princeville,45.7668,-61.2985,44.31,77,0,10.36,CA,1712874694
114,tralee,52.2704,-9.7026,52.75,98,100,4.68,IE,1712874696
115,chul'man,56.8479,124.9104,24.28,97,100,1.01,RU,1712874679
116,queenstown,-31.8976,26.8753,40.73,85,0,1.1,ZA,1712874492
117,island harbour,50.724,-1.2758,53.22,90,91,5.99,GB,1712874664
118,qaqortoq,60.7167,-46.0333,20.61,87,63,2.26,GL,1712873897
119,antsiranana,-12.2787,49.2917,76.75,92,49,4.25,MG,1712874700
120,lokomotivnyy,53.0118,60.5684,41.47,80,99,15.88,RU,1712874700
121,ingeniero jacobacci,-41.3427,-69.5448,42.44,73,100,16.67,AR,1712874527
122,nadym,65.5333,72.5167,9.23,91,100,30.62,RU,1712874702
123,formosa,-26.1775,-58.1781,72.97,96,100,1.99,AR,1712874640
124,bredasdorp,-34.5322,20.0403,56.34,72,4,8.48,ZA,1712874649
125,sao paulo de olivenca,-3.3783,-68.8725,76.8,95,88,0.63,BR,1712874705
126,moree,-29.4667,149.85,68.68,60,0,10.85,AU,1712874706
127,le port,-20.9373,55.2919,78.8,84,62,7.63,RE,1712874707
128,cabo san lucas,22.8909,-109.9124,82.62,39,40,8.05,MX,1712874516
129,carnarvon,-24.8667,113.6333,70.29,65,72,20.11,AU,1712874709
130,sojat,25.9167,73.6667,79.16,39,55,8.25,IN,1712874709
131,college,64.8569,-147.8028,43.45,43,75,9.22,US,1712874490
132,lompoc,34.6391,-120.4579,83.79,72,0,10.36,US,1712874186
133,puerto lempira,15.2667,-83.7667,87.67,61,55,15.14,HN,1712873911
134,la ronge,55.1001,-105.2842,43.05,52,20,8.05,CA,1712874713
135,coquimbo,-29.9533,-71.3436,56.93,94,100,5.75,CL,1712874520
136,thompson,55.7435,-97.8558,33.96,75,100,9.22,CA,1712874715
137,muntok,-2.0667,105.1833,78.51,88,98,3.47,ID,1712874715
138,yellowknife,62.456,-114.3525,37.92,60,40,10.36,CA,1712874487
139,quellon,-43.1167,-73.6167,50.67,70,0,5.23,CL,1712874589
140,caleta de carquin,-11.0925,-77.6267,73.04,79,57,10.63,PE,1712874702
141,ust-nera,64.5667,143.2,19.24,92,89,5.35,RU,1712874719
142,belmonte,-15.8631,-38.8828,79.07,85,48,5.73,BR,1712874720
143,east london,-33.0153,27.9116,60.08,64,40,15.08,ZA,1712874609
144,jamestown,42.097,-79.2353,63.99,97,100,8.05,US,1712874449
145,conceicao da barra,-18.5933,-39.7322,76.75,88,20,5.17,BR,1712874723
146,happy valley-goose bay,53.3168,-60.3315,53.91,22,75,12.66,CA,1712874531
147,codrington,-38.2667,141.9667,59.0,62,99,8.21,AU,1712874725
148,aswan,24.0934,32.907,74.5,21,0,3.44,EG,1712874726
149,chulakkurgan,43.765,69.1814,50.63,68,100,9.89,KZ,1712874606
150,ketchikan,55.3422,-131.6461,45.07,76,100,5.75,US,1712874630
151,motygino,58.1831,94.7592,11.79,97,100,1.99,RU,1712874728
152,geidam,12.897,11.9304,84.52,8,74,9.31,NG,1712874729
153,bargaal,11.2864,51.0773,80.98,82,67,6.2,SO,1712874730
154,kidal,18.4411,1.4078,88.47,10,82,12.39,ML,1712874550
155,san luis de la loma,17.2706,-100.8939,82.65,62,4,5.41,MX,1712874732
156,taoudenni,22.6783,-3.9836,82.85,10,0,10.71,ML,1712874733
157,elbeuf,49.2867,1.0029,60.53,82,100,2.3,FR,1712874735
158,vila franca do campo,37.7167,-25.4333,64.89,99,36,3.71,PT,1712874735
159,bardsir,29.9227,56.5743,56.57,49,1,11.36,IR,1712874736
160,tsiombe,-25.3,45.4833,68.11,88,95,4.61,MG,1712874737
161,caluula,11.9661,50.7569,82.26,73,92,8.3,SO,1712874711
162,kuta,-8.7233,115.1723,80.55,94,40,2.3,ID,1712874739
163,hobyo,5.3505,48.5268,83.44,78,62,10.11,SO,1712874740
164,kamaishi,39.2667,141.8833,52.66,80,100,5.41,JP,1712874741
165,afaahiti,-17.75,-149.2833,85.87,86,98,16.73,PF,1712874509
166,badger,64.8,-147.5333,43.36,44,75,9.22,US,1712874166
167,nuuk,64.1835,-51.7216,27.21,93,75,8.05,GL,1712874672
168,onega,63.9061,38.1404,35.46,83,20,15.08,RU,1712874745
169,woolgoolga,-30.1106,153.2007,67.87,65,0,12.17,AU,1712874746
170,greymouth,-42.4667,171.2,53.96,86,77,11.5,NZ,1712874747
171,banda aceh,5.5577,95.3222,80.02,79,91,5.41,ID,1712874747
172,celestun,20.8667,-90.4,77.61,58,21,17.22,MX,1712874748
173,tubarjal,30.4999,38.216,65.28,50,0,9.6,SA,1712874749
174,atafu village,-8.5421,-172.5159,85.1,76,47,7.49,TK,1712874214
175,isafjordur,66.0755,-23.124,26.94,94,100,31.18,IS,1712874487
176,bandarbeyla,9.4942,50.8122,82.22,84,36,6.04,SO,1712874588
177,nova sintra,14.8667,-24.7167,72.79,76,2,16.51,CV,1712874752
178,kapuskasing,49.4169,-82.4331,60.89,36,100,5.75,CA,1712874509
179,joaquin v. gonzalez,-25.0833,-64.1833,56.71,96,100,5.66,AR,1712874754
180,saipan,15.1355,145.701,84.9,70,40,14.97,MP,1712874755
181,dudinka,69.4058,86.1778,-14.39,100,85,7.94,RU,1712874756
182,el hadjira,32.6134,5.5126,55.18,69,22,9.15,DZ,1712874757
183,mawlaik,23.6333,94.4167,69.91,28,40,1.9,MM,1712874758
184,papatowai,-46.5619,169.4708,46.62,81,100,4.72,NZ,1712874674
185,troitsko-pechorsk,62.7084,56.1964,38.7,99,100,14.0,RU,1712874760
186,el granada,37.5027,-122.4694,85.91,71,0,20.71,US,1712874660
187,tabou,4.423,-7.3528,79.93,81,100,4.5,CI,1712874762
188,fagaras,45.85,24.9667,52.25,59,25,3.33,RO,1712874762
189,thurso,58.5927,-3.5259,53.85,78,100,10.76,GB,1712874763
190,santa elena de uairen,4.6167,-61.1333,80.56,45,99,6.22,VE,1712874709
191,saldanha,-33.0117,17.9442,62.65,60,7,12.03,ZA,1712874765
192,hermanus,-34.4187,19.2345,56.8,73,28,16.62,ZA,1712874765
193,murzuq,25.9155,13.9184,72.9,14,5,20.78,LY,1712874766
194,nuriootpa,-34.4833,139.0,56.55,71,0,3.85,AU,1712874768
195,tolanaro,-25.0319,46.9987,73.47,88,40,4.61,MG,1712874248
196,moranbah,-22.0016,148.0466,70.86,57,1,12.95,AU,1712874769
197,baglung,28.2719,83.5898,59.63,27,1,7.65,NP,1712874770
198,al mindak,20.1588,41.2834,64.0,76,29,2.66,SA,1712874771
199,accra,5.556,-0.1969,84.61,79,0,6.91,GH,1712874497
200,chippewa falls,44.9369,-91.3929,61.99,47,100,8.05,US,1712874772
201,minas de marcona,-15.2119,-75.1103,66.72,70,3,15.57,PE,1712874504
202,hamilton,39.1834,-84.5333,65.03,91,75,21.85,US,1712874485
203,aykhal,66.0,111.5,-21.59,100,100,6.02,RU,1712874485
204,coahuayana de hidalgo,18.7,-103.6583,85.05,49,2,6.62,MX,1712874198
205,mili,6.0815,171.735,81.64,83,100,17.16,MH,1712874777
206,baihe,22.15,107.2333,74.53,89,100,1.99,CN,1712874777
207,lihue,21.9789,-159.3672,79.84,80,100,4.61,US,1712874778
208,nova vicosa,-17.8919,-39.3719,79.43,81,0,7.14,BR,1712874505
209,freetown,8.484,-13.2299,82.11,74,24,12.66,SL,1712874780
210,ugoofaaru,5.6667,73.0,84.36,73,79,4.61,MV,1712874780
211,touros,-5.1989,-35.4608,80.76,81,99,7.25,BR,1712874541
212,leca da palmeira,41.191,-8.7003,64.4,72,0,2.3,PT,1712874782
213,diamantino,-14.4086,-56.4461,73.2,96,85,2.42,BR,1712874784
214,severoural'sk,60.1533,59.952,38.98,74,79,6.02,RU,1712874785
215,gadzhiyevo,69.2551,33.3362,31.23,91,100,25.26,RU,1712874786
216,barra de santo antonio,-9.4047,-35.5072,81.68,79,40,8.48,BR,1712874787
217,la'ie,21.6477,-157.9253,80.56,79,100,8.01,US,1712874788
218,soe,-9.8607,124.284,67.75,89,84,1.9,ID,1712874789
219,tazovsky,67.4667,78.7,-8.57,95,53,13.91,RU,1712874494
220,tena,-0.9833,-77.8167,73.56,97,91,1.83,EC,1712874790
221,balqash,46.8481,74.995,37.89,60,60,16.46,KZ,1712874791
222,terrace,54.5163,-128.6035,44.51,70,75,8.05,CA,1712874792
223,neiafu,-18.65,-173.9833,83.08,78,40,8.05,TO,1712874792
224,uvarovo,51.9849,42.2615,60.91,72,100,7.34,RU,1712874793
225,zhanaozen,43.3,52.8,52.56,65,1,18.01,KZ,1712874717
226,tannum sands,-23.9504,151.3693,69.69,73,75,8.05,AU,1712874795
227,mohacs,45.9931,18.6831,61.03,77,83,5.95,HU,1712874795
228,mezhdurechensk,53.6942,88.0603,26.65,96,100,7.11,RU,1712874796
229,maslyanino,54.3436,84.2111,23.9,79,95,9.28,RU,1712874736
230,st. john's,47.5649,-52.7093,39.67,76,0,11.5,CA,1712874218
231,broome,42.2506,-75.833,64.71,81,100,18.41,US,1712874798
232,drayton valley,53.2168,-114.9854,50.22,42,100,14.41,CA,1712874799
233,wyomissing,40.3295,-75.9652,67.1,81,100,14.0,US,1712874800
234,kristiansund,63.1115,7.732,48.85,76,100,21.85,NO,1712874801
235,tilcara,-23.5776,-65.3509,45.86,100,100,5.46,AR,1712874801
236,embi,48.8264,58.1442,44.31,71,50,5.01,KZ,1712874802
237,reggane,26.7158,0.1714,78.06,17,0,16.71,DZ,1712874550
238,urcos,-13.6861,-71.6228,60.69,89,98,6.64,PE,1712874804
239,kailua-kona,19.6406,-155.9956,82.27,73,100,5.75,US,1712874804
240,cova figueira,14.8905,-24.2934,63.27,71,0,7.07,CV,1712874805
241,powell,40.1578,-83.0752,64.85,94,100,4.61,US,1712874806
242,notodden,59.5594,9.2585,47.21,85,58,2.46,NO,1712874807
243,la passe,45.5549,-0.8967,56.01,93,40,7.29,FR,1712874534
244,sovetskaya,44.7769,41.1722,52.95,75,87,8.01,RU,1712874808
245,sitka,57.0531,-135.33,44.49,65,20,14.97,US,1712874688
246,amalapuram,16.5833,82.0167,75.83,87,11,2.35,IN,1712874810
247,khandyga,62.6667,135.6,25.9,88,99,7.74,RU,1712874637
248,vanimo,-2.6741,141.3028,80.69,87,86,1.54,PG,1712874811
249,nuku'alofa,-21.1333,-175.2,84.54,79,40,6.91,TO,1712874812
250,wanning,18.8003,110.3967,75.67,93,28,3.24,CN,1712874724
251,lander,42.833,-108.7307,63.41,17,0,6.91,US,1712874675
252,antalaha,-14.9003,50.2788,76.6,93,29,3.38,MG,1712874815
253,luganville,-15.5333,167.1667,85.01,72,20,4.34,VU,1712874815
254,kangding,30.0513,101.9603,46.94,65,74,4.76,CN,1712874816
255,moca,19.5,-70.5,80.65,62,20,6.91,DO,1712874817
256,st. paul,44.9444,-93.0933,61.48,50,100,18.41,US,1712874794
257,dakhla,23.6848,-15.958,68.49,74,0,12.84,EH,1712874819
258,shenjiamen,29.9576,122.298,57.22,99,100,11.63,CN,1712874538
259,sicuani,-14.2694,-71.2261,54.66,70,73,4.76,PE,1712874820
260,dogansehir,38.0919,37.8789,49.26,78,67,3.62,TR,1712874821
261,luchegorsk,46.4764,134.2569,50.52,73,7,5.99,RU,1712874822
262,inebolu,41.9747,33.7608,55.47,81,21,4.41,TR,1712874822
263,salahonda,2.1019,-78.7217,81.59,76,52,9.37,CO,1712874823
264,dul'durga,50.6761,113.5931,38.39,58,37,2.77,RU,1712874824
265,manismata,-2.4667,111.0333,74.57,98,66,1.25,ID,1712874825
266,trevelin,-43.0858,-71.4639,46.72,69,92,2.48,AR,1712874826
267,tinajo,29.0788,-13.7081,79.68,26,0,11.5,ES,1712874826
268,itamaraca,-7.7478,-34.8256,86.05,80,52,7.43,BR,1712874528
269,altamont,42.2068,-121.7372,70.77,30,0,11.5,US,1712874828
270,wasaga beach,44.5168,-80.0164,57.79,97,100,7.85,CA,1712874829
271,mount gambier,-37.8333,140.7667,54.97,66,100,3.29,AU,1712874540
272,puerto baquerizo moreno,-0.9,-89.6,81.59,78,40,12.66,EC,1712874542
273,walvis bay,-22.9575,14.5053,62.26,82,5,6.33,NA,1712874831
274,rio grande,-32.035,-52.0986,68.11,61,100,15.14,BR,1712874574
275,jinghong,21.991,100.7341,69.37,42,23,2.57,CN,1712874833
276,chui,-33.6971,-53.4616,63.88,56,98,8.1,UY,1712874834
277,vilyuchinsk,52.9306,158.4028,37.67,80,6,7.43,RU,1712874834
278,polva,58.0603,27.0694,47.01,88,100,16.02,EE,1712874835
279,sao vicente,-23.9631,-46.3919,78.98,70,100,1.14,BR,1712874642
280,mata-utu,-13.2816,-176.1745,85.39,75,34,11.36,WF,1712874578
281,prince rupert,54.3161,-130.3201,44.69,70,100,5.75,CA,1712874837
282,pader palwo,2.8006,33.135,70.34,77,46,4.92,UG,1712874838
283,xiongzhou,25.1167,114.3,73.08,94,95,2.98,CN,1712874839
284,polyarnyy,69.1989,33.4478,31.98,93,100,24.81,RU,1712874573
285,fisterra,42.9049,-9.2629,58.75,72,100,5.1,ES,1712874841
286,port macquarie,-31.4333,152.9167,66.88,68,1,6.67,AU,1712874662
287,talnakh,69.4865,88.3972,-14.8,97,95,8.75,RU,1712874797
288,strzelce opolskie,50.5107,18.3006,51.4,66,20,3.85,PL,1712874844
289,nguruka,-5.1092,31.0419,64.56,96,69,1.19,TZ,1712874845
290,oguzeli,36.9657,37.5134,55.38,88,0,1.14,TR,1712874846
291,road town,18.4167,-64.6167,80.64,74,40,17.27,VG,1712874846
292,coria,39.9879,-6.5377,59.56,80,68,4.52,ES,1712874847
293,pimentel,-6.8367,-79.9342,79.09,65,0,27.63,PE,1712874848
294,ancud,-41.8697,-73.8203,51.03,74,0,4.07,CL,1712874765
295,altai,46.3722,96.2583,32.4,62,40,13.31,MN,1712874850
296,sisimiut,66.9395,-53.6735,22.51,90,96,3.04,GL,1712874674
297,punta arenas,-53.15,-70.9167,48.31,61,0,32.21,CL,1712874852
298,znamenskoye,57.1281,73.8282,22.95,81,49,7.29,RU,1712874853
299,okha,53.5739,142.9478,29.25,96,75,8.99,RU,1712874568
300,roma,43.2128,-75.4557,64.81,79,75,13.8,US,1712874731
301,cill airne,52.05,-9.5167,52.72,98,100,5.12,IE,1712874855
302,igrim,63.1906,64.4162,34.83,98,100,11.18,RU,1712874856
303,chernyshkovskiy,48.4219,42.2308,62.11,62,1,8.37,RU,1712874857
304,kirkland lake,48.1446,-80.0377,55.69,47,100,4.61,CA,1712874858
305,vorgashor,67.5833,63.95,14.81,87,100,22.03,RU,1712874711
306,luderitz,-26.6481,15.1594,71.53,46,0,4.68,NA,1712874798
307,bahia de caraquez,-0.6,-80.4167,86.18,78,53,6.04,EC,1712874860
308,escarcega,18.6089,-90.7454,80.71,46,52,10.69,MX,1712874838
309,isangel,-19.55,169.2667,80.71,94,75,2.3,VU,1712874862
310,abepura,-2.6333,140.5833,76.01,100,20,2.3,ID,1712874862
311,san antonio suchitepequez,14.5333,-91.4167,94.95,57,88,7.27,GT,1712874863
312,lata,40.1629,-8.3327,63.07,83,97,3.04,PT,1712874864
313,daga,27.0753,89.8769,51.39,71,86,6.62,BT,1712874865
314,hirara,24.8,125.2833,71.87,94,89,4.61,JP,1712874865
315,dunedin,-45.8742,170.5036,47.8,97,100,3.0,NZ,1712874652
316,hotan,37.0997,79.9269,61.3,19,17,7.18,CN,1712874867
317,nyurba,63.2842,118.3319,-5.69,96,44,4.52,RU,1712874797
318,villamontes,-21.25,-63.5,61.05,83,100,4.43,BO,1712874868
319,qamdo,31.1667,97.2333,27.34,59,28,4.21,CN,1712874869
320,crane,31.3974,-102.3501,79.7,13,0,12.95,US,1712874870
321,lazaro cardenas,17.9583,-102.2,81.14,63,0,8.25,MX,1712874802
322,at taj,24.2049,23.2857,69.55,20,100,8.95,LY,1712874871
323,kavaratti,10.5669,72.642,84.2,67,1,2.89,IN,1712874872
324,fort st. john,56.2499,-120.8529,49.89,37,100,6.91,CA,1712874675
325,egilsstadir,65.2653,-14.3948,31.91,100,100,5.75,IS,1712874874
326,leticia,-4.2153,-69.9406,84.25,84,20,3.44,CO,1712874874
327,mocimboa,-11.3167,40.35,79.05,88,100,5.46,MZ,1712874875
328,goundi,9.3627,17.366,92.84,31,83,4.32,TD,1712874876
329,turkmenbasy,40.0222,52.9552,56.17,76,0,9.22,TM,1712874877
330,barysh,53.6553,47.1123,54.46,94,100,5.19,RU,1712874735
331,bardai,11.65,7.2333,83.1,10,94,9.26,NG,1712874878
332,mersing,2.4312,103.8405,80.51,89,40,6.91,MY,1712874879
333,ulsteinvik,62.3432,5.8487,52.7,89,85,13.87,NO,1712874880
334,cururupu,-1.8283,-44.8683,76.08,96,61,1.41,BR,1712874880
335,taksimo,56.3444,114.8794,30.07,83,99,1.32,RU,1712874881
336,calais,50.9167,1.8333,56.05,94,93,14.79,FR,1712874882
337,fort william,56.8165,-5.1121,51.31,95,100,4.81,GB,1712874882
338,kutum,14.2,24.6667,73.29,14,8,8.72,SD,1712874883
339,brookings,44.3114,-96.7984,53.94,54,75,24.16,US,1712874857
340,steinbach,50.1667,8.5667,53.19,72,0,1.14,DE,1712874773
341,ciudad lazaro cardenas,17.9583,-102.2,81.14,63,0,8.25,MX,1712874802
342,colonia,50.9333,6.95,58.28,82,100,1.14,DE,1712874886
343,tadine,-21.55,167.8833,75.49,75,100,8.48,NC,1712874887
344,lapeer,43.0514,-83.3188,54.95,100,100,9.22,US,1712874598
345,challapata,-18.9,-66.7667,54.7,62,77,2.8,BO,1712874888
346,izberbash,42.5696,47.8645,51.85,59,47,4.97,RU,1712874889
347,wolfsburg,52.4333,10.8,58.08,86,100,5.93,DE,1712874600
348,al kharijah,25.4514,30.5464,69.55,31,91,7.94,EG,1712874733
349,bairnsdale,-37.8333,147.6167,57.06,94,0,4.59,AU,1712874891
350,tazacorte,28.629,-17.9293,74.37,46,100,10.36,ES,1712874892
351,bengkulu,-3.8004,102.2655,76.28,94,100,3.6,ID,1712874893
352,yanchep,-31.55,115.6833,62.73,64,5,7.47,AU,1712874894
353,svislach,53.6404,27.9199,44.85,66,82,7.36,BY,1712874895
354,nantucket,41.2835,-70.0995,53.74,99,100,14.97,US,1712874896
355,san lawrenz,36.0553,14.204,60.21,78,92,16.55,MT,1712874897
356,sabang,5.8933,95.3214,85.5,72,98,16.26,ID,1712874897
357,rawlins,41.7911,-107.2387,59.36,12,0,16.11,US,1712874898
358,ystad,55.4297,13.8204,53.29,97,79,16.2,SE,1712874899
359,portland,45.5234,-122.6762,64.33,42,75,8.99,US,1712874598
360,'ali sabieh,11.1558,42.7125,77.13,79,10,6.76,DJ,1712874900
361,tafuna,-14.3358,-170.72,89.55,74,40,4.61,AS,1712874902
362,concepcion,-36.827,-73.0498,58.8,72,0,6.91,CL,1712874755
363,kuchinda,21.7333,84.35,70.0,59,66,1.34,IN,1712874903
364,port shepstone,-30.7414,30.455,62.46,56,0,18.66,ZA,1712874904
365,sorong,-0.8833,131.25,81.41,79,99,6.67,ID,1712874905
366,colonia menno,-22.3667,-59.8167,70.18,95,100,11.03,PY,1712874906
367,robore,-18.3333,-59.75,77.09,100,100,0.0,BO,1712874907
368,ulladulla,-35.35,150.4667,63.37,66,52,0.78,AU,1712874908
369,wynyard,-41.0,145.7167,58.55,75,89,8.77,AU,1712874908
370,keelung,25.1283,121.7419,75.99,88,74,4.76,TW,1712874909
371,gordonvale,-17.0936,145.7842,80.91,86,46,4.45,AU,1712874910
372,nikolayevsk-on-amure,53.1406,140.73,32.22,96,82,4.0,RU,1712874793
373,kimbe,-5.5502,150.1429,84.85,69,63,0.67,PG,1712874912
374,kerikeri,-35.2268,173.9474,70.92,84,48,6.98,NZ,1712874789
375,as sulayyil,20.4607,45.5779,84.45,29,40,9.13,SA,1712874913
376,gunjur,13.2019,-16.7339,71.67,83,0,8.05,GM,1712874617
377,osterhofen,48.7,13.0167,51.71,85,41,0.54,DE,1712874915
378,constantia,44.1833,28.65,59.7,59,26,6.91,RO,1712874775
379,badagry,6.4167,2.8833,81.81,80,89,12.59,NG,1712874916
380,cabedelo,-6.9811,-34.8339,83.07,80,100,9.8,BR,1712874856
381,constitucion,-35.3333,-72.4167,53.51,89,10,0.49,CL,1712874917
382,togur,58.3631,82.8265,10.15,89,16,5.01,RU,1712874918
383,katsuura,35.1333,140.3,57.78,88,100,13.06,JP,1712874919
384,pokhara,28.2333,83.9833,65.17,19,2,7.87,NP,1712874920
385,djenne,13.9061,-4.5533,92.68,27,94,6.62,ML,1712874920
386,opuwo,-18.0607,13.84,69.48,50,38,0.87,NA,1712874921
387,dadukou,26.5479,101.7054,57.49,52,11,2.93,CN,1712874922
388,spasskoye,44.6108,132.7969,52.48,64,22,8.81,RU,1712874923
389,bubaque,11.2833,-15.8333,75.52,71,0,21.34,GW,1712874923
390,midvagur,62.0511,-7.1939,45.43,93,100,11.5,FO,1712874768
391,rabo de peixe,37.8,-25.5833,63.99,99,20,3.44,PT,1712874651
392,marsh harbour,26.5412,-77.0636,75.92,84,100,21.32,BS,1712874917
393,nemuro,43.3236,145.575,40.8,95,100,15.95,JP,1712874926
394,thunder bay,48.4001,-89.3168,49.98,87,100,11.5,CA,1712874709
395,luang prabang,19.8856,102.1347,75.78,69,74,0.67,LA,1712874928
396,contai,21.7786,87.7536,79.2,46,73,5.55,IN,1712874929
397,motueka,-41.1333,173.0167,66.09,95,84,8.57,NZ,1712874929
398,ta`u,-14.2336,-169.5144,84.16,78,5,10.29,AS,1712874930
399,lospalos,-8.5186,127.0025,73.31,86,33,3.0,TL,1712874931
400,lai chau,22.3997,103.4517,64.98,79,43,2.04,VN,1712874932
401,basti,26.8,82.7167,78.21,22,3,4.23,IN,1712874932
402,grand-lahou,5.1367,-5.0242,78.42,83,100,5.01,CI,1712874933
403,pirenopolis,-15.8525,-48.9592,75.69,91,41,3.31,BR,1712874934
404,petauke,-14.2426,31.3253,64.85,95,100,10.25,ZM,1712874935
405,warrnambool,-38.3833,142.4833,58.1,75,99,8.48,AU,1712874935
406,palitana,21.5167,71.8333,81.77,49,5,4.65,IN,1712874936
407,richards bay,-28.783,32.0377,63.88,62,80,12.5,ZA,1712874937
408,pamandzi,-12.7967,45.2794,80.38,94,40,4.61,YT,1712874938
409,las juntas,19.4167,-104.7,71.13,34,6,7.18,MX,1712874939
410,chipinge,-20.1883,32.6236,59.63,95,98,5.59,ZW,1712874940
411,aasiaat,68.7098,-52.8699,19.83,93,99,4.83,GL,1712874941
412,brixham,50.3943,-3.5159,51.75,92,65,3.0,GB,1712874782
413,lakes,61.6071,-149.3086,40.66,56,100,28.77,US,1712874942
414,al faw,29.9776,48.4741,73.4,36,0,10.47,IQ,1712874943
415,el calafate,-50.3408,-72.2768,44.56,63,2,4.94,AR,1712874943
416,laghouat,33.8,2.8651,48.88,59,19,19.17,DZ,1712874944
417,sumbe,-11.2061,13.8437,77.77,93,100,6.38,AO,1712874749
418,zaozersk,69.4005,32.4476,29.71,94,99,15.37,RU,1712874946
419,siavonga,-16.5382,28.7088,73.96,86,86,7.4,ZM,1712874947
420,mandera,3.9366,41.867,87.21,55,84,7.05,KE,1712874947
421,ringim,12.1548,9.1619,84.63,10,86,8.68,NG,1712874948
422,tosontsengel,48.7567,98.2839,33.08,82,99,8.48,MN,1712874949
423,planeta rica,8.4147,-75.5883,86.92,70,91,9.48,CO,1712874950
424,qala i naw,34.9874,63.1289,60.15,84,99,7.76,AF,1712874950
425,manaure,11.7751,-72.4445,87.94,50,0,21.32,CO,1712874951
426,mandiana,10.6333,-8.6833,88.11,37,55,4.56,GN,1712874952
427,usinsk,65.9939,57.5281,35.08,99,100,23.0,RU,1712874951
428,colinas,-6.0258,-44.2492,74.71,96,66,2.26,BR,1712874954
429,awjilah,29.1081,21.2869,67.98,25,52,6.49,LY,1712874800
430,imbituba,-28.24,-48.6703,69.42,90,100,10.04,BR,1712874956
431,naxos,37.1056,25.3764,66.31,82,30,10.0,GR,1712874675
432,rumphi,-11.0186,33.8575,66.42,94,100,3.36,MW,1712874957
433,northam,51.0333,-4.2167,52.39,95,76,15.17,GB,1712874960
434,prineville,44.2999,-120.8345,68.11,33,0,11.5,US,1712874960
435,calvinia,-31.4707,19.776,54.48,42,4,9.15,ZA,1712874961
436,rongelap,11.1635,166.8941,80.44,79,100,19.69,MH,1712874962
437,zhezqazghan,47.7833,67.7667,35.19,69,1,12.62,KZ,1712874963
438,cuajinicuilapa,16.4667,-98.4167,89.08,46,20,8.28,MX,1712874964
439,keetmanshoop,-26.5833,18.1333,67.12,30,0,8.05,NA,1712874964
440,puerto colombia,10.9878,-74.9547,87.89,78,5,19.62,CO,1712874965
441,liberty,31.8335,-81.5004,82.51,34,20,23.02,US,1712874966
442,lagnieu,45.9004,5.3466,52.27,95,40,1.52,FR,1712874967
443,broken hill,-31.95,141.4333,56.95,55,24,10.71,AU,1712874878
444,buka,40.8108,69.1986,61.45,71,100,14.81,UZ,1712874968
445,magdagachi,53.45,125.8,34.03,81,100,9.04,RU,1712874969
446,igarka,67.4667,86.5833,-24.99,100,55,1.99,RU,1712874970
447,wamba,8.9333,8.6,84.7,23,39,3.0,NG,1712874971
448,plettenberg bay,-34.0527,23.3716,55.76,70,15,3.76,ZA,1712874971
449,bhinmal,25.0,72.25,79.88,40,45,5.19,IN,1712874972
450,north battleford,52.7834,-108.2847,55.4,24,0,10.36,CA,1712874973
451,cockburn town,21.4612,-71.1419,77.58,81,5,20.71,TC,1712874974
452,cobija,-11.0267,-68.7692,87.98,66,40,13.8,BO,1712874975
453,fale old settlement,-9.3852,-171.2468,85.24,76,22,8.66,TK,1712874731
454,wenling,28.3669,121.36,61.09,96,100,5.39,CN,1712874977
455,ciudad gustavo diaz ordaz,26.2333,-98.5833,91.29,21,43,11.18,MX,1712874978
456,lodeynoye pole,60.726,33.5531,41.23,94,100,11.21,RU,1712874979
457,kavali,14.9167,79.9833,79.7,82,4,6.85,IN,1712874980
458,newman,37.3138,-121.0208,84.24,47,20,3.0,US,1712874856
459,ilhabela,-23.7781,-45.3581,75.34,90,91,2.77,BR,1712874981
460,kabansk,52.0486,106.6528,36.41,96,99,1.88,RU,1712874982
461,hasaki,35.7333,140.8333,59.4,79,100,12.64,JP,1712874983
462,misratah,32.3754,15.0925,63.59,84,79,14.74,LY,1712874983
463,surab,28.4914,66.2585,64.42,37,100,6.44,PK,1712874984
464,extrema,-22.8547,-46.3183,65.97,97,96,4.79,BR,1712874985
465,kisangani,0.5167,25.2,76.03,77,87,5.26,CD,1712874986
466,siverskiy,59.3544,30.0783,48.56,75,100,14.14,RU,1712874698
467,port hedland,-20.3167,118.5667,69.85,94,0,3.44,AU,1712874988
468,tocoa,15.6833,-86.0,85.62,65,44,4.9,HN,1712874989
469,grand falls-windsor,48.9332,-55.6649,36.05,69,4,6.26,CA,1712874990
470,tofol,5.3248,163.0078,82.18,83,100,6.91,FM,1712874990
471,chaman,30.9236,66.4512,68.59,39,83,15.19,PK,1712874991
472,grantsville,40.5999,-112.4644,71.87,31,0,12.66,US,1712874992
473,weston,26.1004,-80.3998,89.62,67,20,18.41,US,1712874297
474,hammerfest,70.6634,23.6821,34.25,86,100,8.05,NO,1712874993
475,beau vallon,-20.4189,57.6953,80.22,94,40,4.61,MU,1712874994
476,tura,25.5198,90.2201,73.9,40,80,3.36,IN,1712874995
477,sengkang,-4.1279,120.0297,75.06,98,100,3.58,ID,1712874995
478,villa regina,-39.1,-67.0667,55.98,32,100,4.0,AR,1712874996
479,monrovia,6.3005,-10.7969,80.37,88,95,3.58,LR,1712874997
480,acapulco de juarez,16.8634,-99.8901,84.02,74,0,9.22,MX,1712874998
481,hastings,50.8552,0.5729,54.9,95,88,12.46,GB,1712874998
482,mikuni,36.2171,136.1519,53.51,70,56,3.11,JP,1712874999
483,teple,48.3086,39.5737,61.43,57,0,7.05,UA,1712875000
484,les avirons,-21.2418,55.3394,75.29,73,0,5.75,RE,1712875001
485,chuzhou,32.3219,118.2978,58.68,99,100,4.21,CN,1712875002
486,tukrah,32.5341,20.5791,61.2,77,100,13.4,LY,1712875002
487,mccook,40.2019,-100.6257,64.45,18,0,11.5,US,1712875003
488,jurilovca,44.7667,28.8667,63.03,59,70,6.82,RO,1712875004
489,rocha,-34.4833,-54.3333,61.05,56,96,5.77,UY,1712875005
490,tympaki,35.0729,24.7685,62.76,75,11,3.0,GR,1712875005
491,lukolela,-1.0605,17.1821,73.45,90,99,0.83,CD,1712875006
492,zeya,53.75,127.2667,32.49,79,100,6.71,RU,1712874796
493,chengam,12.3,78.8,75.9,91,48,3.74,IN,1712875008
494,revda,56.801,59.9303,47.07,86,100,17.6,RU,1712875008
495,pokachi,61.7198,75.3683,8.2,86,100,14.83,RU,1712875009
496,puerto quijarro,-17.7833,-57.7667,77.7,91,93,2.62,BO,1712875010
497,becej,45.6163,20.0333,52.99,84,17,6.58,RS,1712875011
498,qarqaraly,49.4058,75.4742,24.01,79,79,12.19,KZ,1712875011
499,port saint john's,-31.6229,29.5448,59.32,65,8,13.0,ZA,1712875012
500,labrador city,52.9463,-66.9114,39.11,70,100,10.36,CA,1712875013
501,nasrullahganj,22.6833,77.2667,80.1,43,96,2.8,IN,1712875014
502,westport,41.1415,-73.3579,60.1,91,100,3.0,US,1712874727
503,realico,-35.0366,-64.2447,48.34,81,100,10.51,AR,1712875015
504,zhigalovo,54.8097,105.1578,29.84,93,97,2.17,RU,1712875016
505,illizi,26.4833,8.4667,73.2,31,1,13.33,DZ,1712875017
506,wawa,9.9022,4.4192,92.08,31,94,4.36,NG,1712875015
507,antofagasta,-23.65,-70.4,67.28,89,84,6.17,CL,1712875018
508,olyokminsk,60.3736,120.4264,16.07,78,98,7.72,RU,1712874919
509,sankt polten,48.2,15.6333,54.0,92,42,4.47,AT,1712875020
510,yuanping,38.7153,112.7575,58.77,46,33,0.38,CN,1712875020
511,boundiali,9.5217,-6.4869,80.58,65,64,0.96,CI,1712875021
512,ndioum,16.5129,-14.6471,89.64,20,29,14.5,SN,1712875022
513,kayangel,8.0823,134.7173,82.67,75,69,12.03,PW,1712875023
514,callao,-12.0667,-77.15,75.49,69,0,13.8,PE,1712874768
515,umba,66.6871,34.3429,34.5,81,67,17.07,RU,1712874796
516,argostolion,38.1811,20.489,67.75,34,29,4.41,GR,1712875025
517,fuerte olimpo,-21.0415,-57.8738,76.06,93,100,3.2,PY,1712875026
518,selfoss,63.9331,-20.9971,37.04,98,100,6.49,IS,1712875027
519,naze,28.3667,129.4833,67.12,88,92,7.29,JP,1712875028
520,potrerillos,15.2333,-87.9667,91.22,37,8,7.81,HN,1712875029
521,khorixas,-20.3667,14.9667,77.4,39,80,3.98,NA,1712875029
522,strugi-krasnyye,58.2675,29.1114,47.14,82,100,15.3,RU,1712875030
523,tynda,55.1667,124.7167,23.81,99,100,4.83,RU,1712874735
524,huarmey,-10.0681,-78.1522,74.66,77,32,9.69,PE,1712875032
525,bandundu,-3.3167,17.3667,78.44,79,100,2.06,CD,1712875032
526,kalamunda,-32.004,116.1329,58.69,66,0,13.8,AU,1712874768
527,bima,-8.4667,118.7167,76.53,93,94,2.53,ID,1712875034
528,barra dos coqueiros,-10.9089,-37.0386,82.42,83,0,4.61,BR,1712875035
529,camargo,27.6667,-105.1667,80.98,9,68,21.0,MX,1712875036
530,bakchar,57.0186,82.0711,11.12,97,42,2.71,RU,1712874919
531,chilmari,25.5559,89.6715,78.53,42,67,4.92,BD,1712875037
532,red deer,52.2668,-113.802,54.28,30,75,16.11,CA,1712874756
533,champerico,14.3,-91.9167,86.5,66,68,7.7,GT,1712875039
534,mejit,10.2753,170.8646,80.02,79,100,20.67,MH,1712875040
535,cubulco,15.1333,-90.5833,77.81,48,70,9.24,GT,1712875040
536,bontang,0.1333,117.5,79.88,85,91,9.82,ID,1712875041
537,greenville,35.6127,-77.3663,72.14,83,100,24.16,US,1712875009
538,al fuwayliq,26.4432,43.2534,69.31,31,8,9.89,SA,1712875044
539,melouza,35.98,4.1867,42.08,87,83,6.38,DZ,1712875044
540,bataipora,-22.2953,-53.2711,81.7,51,83,6.67,BR,1712875045
541,sao joao da barra,-21.6403,-41.0511,77.09,83,8,6.04,BR,1712874761
542,lubang,13.8584,120.124,80.28,75,74,20.33,PH,1712875047
543,achit,56.7985,57.8994,48.65,88,100,16.58,RU,1712875047
544,wellington,-41.2866,174.7756,62.98,93,100,18.41,NZ,1712874758
545,tocopilla,-22.092,-70.1979,69.15,79,98,4.85,CL,1712875049
546,lorengau,-2.0226,147.2712,81.28,79,100,3.15,PG,1712875050
547,magadan,59.5667,150.8,24.53,85,32,3.33,RU,1712874807
548,lerwick,60.1545,-1.1494,50.0,83,100,16.91,GB,1712874800
549,salwa,29.2958,48.0786,79.97,36,0,1.99,KW,1712875052
550,yuzhno-kurilsk,44.0306,145.8556,40.37,76,100,8.9,RU,1712875053
551,zhosaly,45.4878,64.0781,47.71,51,21,18.45,KZ,1712875054
552,keflavik,64.0049,-22.5624,40.91,87,75,14.97,IS,1712875055
553,funafuti,-8.5243,179.1942,87.8,84,75,2.3,TV,1712875056
554,santo domingo de los colorados,-0.25,-79.15,76.95,86,71,1.28,EC,1712875057
